{
   "type": "FeatureCollection",
   "features": [
  {
    "type": "Feature",
    "geometry": {
       "type": "Point",
       "coordinates":  [ 135.622986,34.844076 ]
    },
    "properties": {
    "HID":"",
    "A32_001":42,
    "A32_002":"",
    "A32_003":"第一中学校",
    "address":"高槻市城内町１−３５",
    "x":135.622986,
    "y":34.844076,
    "label":"第一中学校"
    }
  },
  {
    "type": "Feature",
    "geometry": {
       "type": "Point",
       "coordinates":  [ 135.596631,34.857147 ]
    },
    "properties": {
    "HID":"",
    "A32_001":43,
    "A32_002":"",
    "A32_003":"第二中学校",
    "address":"高槻市郡家本町５２−１",
    "x":135.596631,
    "y":34.857147,
    "label":"第二中学校"
    }
  },
  {
    "type": "Feature",
    "geometry": {
       "type": "Point",
       "coordinates":  [ 135.607874,34.832141 ]
    },
    "properties": {
    "HID":"",
    "A32_001":44,
    "A32_002":"",
    "A32_003":"第三中学校",
    "address":"高槻市芝生町二丁目４９−５",
    "x":135.607874,
    "y":34.832141,
    "label":"第三中学校"
    }
  },
  {
    "type": "Feature",
    "geometry": {
       "type": "Point",
       "coordinates":  [ 135.591996,34.839045 ]
    },
    "properties": {
    "HID":"",
    "A32_001":45,
    "A32_002":"",
    "A32_003":"第四中学校",
    "address":"高槻市大畑町４−４",
    "x":135.591996,
    "y":34.839045,
    "label":"第四中学校"
    }
  },
  {
    "type": "Feature",
    "geometry": {
       "type": "Point",
       "coordinates":  [ 135.637915,34.846864 ]
    },
    "properties": {
    "HID":"",
    "A32_001":46,
    "A32_002":"",
    "A32_003":"第六中学校",
    "address":"高槻市永楽町１０−３",
    "x":135.637915,
    "y":34.846864,
    "label":"第六中学校"
    }
  },
  {
    "type": "Feature",
    "geometry": {
       "type": "Point",
       "coordinates":  [ 135.603737,34.806993 ]
    },
    "properties": {
    "HID":"",
    "A32_001":47,
    "A32_002":"",
    "A32_003":"第七中学校",
    "address":"高槻市西面北一丁目４５−１",
    "x":135.603737,
    "y":34.806993,
    "label":"第七中学校"
    }
  },
  {
    "type": "Feature",
    "geometry": {
       "type": "Point",
       "coordinates":  [ 135.627229,34.864965 ]
    },
    "properties": {
    "HID":"",
    "A32_001":48,
    "A32_002":"",
    "A32_003":"第八中学校",
    "address":"高槻市紅茸町５−１",
    "x":135.627229,
    "y":34.864965,
    "label":"第八中学校"
    }
  },
  {
    "type": "Feature",
    "geometry": {
       "type": "Point",
       "coordinates":  [ 135.599546,34.873258 ]
    },
    "properties": {
    "HID":"",
    "A32_001":49,
    "A32_002":"",
    "A32_003":"第九中学校",
    "address":"高槻市松が丘一丁目１７−１",
    "x":135.599546,
    "y":34.873258,
    "label":"第九中学校"
    }
  },
  {
    "type": "Feature",
    "geometry": {
       "type": "Point",
       "coordinates":  [ 135.627615,34.822136 ]
    },
    "properties": {
    "HID":"",
    "A32_001":50,
    "A32_002":"",
    "A32_003":"第十中学校",
    "address":"高槻市竹の内町６１−１",
    "x":135.627615,
    "y":34.822136,
    "label":"第十中学校"
    }
  },
  {
    "type": "Feature",
    "geometry": {
       "type": "Point",
       "coordinates":  [ 135.599377,34.823263 ]
    },
    "properties": {
    "HID":"",
    "A32_001":51,
    "A32_002":"",
    "A32_003":"柳川中学校",
    "address":"高槻市川添一丁目１−５",
    "x":135.599377,
    "y":34.823263,
    "label":"柳川中学校"
    }
  },
  {
    "type": "Feature",
    "geometry": {
       "type": "Point",
       "coordinates":  [ 135.584958,34.858626 ]
    },
    "properties": {
    "HID":"",
    "A32_001":52,
    "A32_002":"",
    "A32_003":"阿武野中学校",
    "address":"高槻市氷室町五丁目７−１",
    "x":135.584958,
    "y":34.858626,
    "label":"阿武野中学校"
    }
  },
  {
    "type": "Feature",
    "geometry": {
       "type": "Point",
       "coordinates":  [ 135.655596,34.857676 ]
    },
    "properties": {
    "HID":"",
    "A32_001":53,
    "A32_002":"",
    "A32_003":"五領中学校",
    "address":"高槻市道鵜町三丁目２０−１",
    "x":135.655596,
    "y":34.857676,
    "label":"五領中学校"
    }
  },
  {
    "type": "Feature",
    "geometry": {
       "type": "Point",
       "coordinates":  [ 135.626028,34.838939 ]
    },
    "properties": {
    "HID":"",
    "A32_001":54,
    "A32_002":"",
    "A32_003":"城南中学校",
    "address":"高槻市城南町二丁目３０−１",
    "x":135.626028,
    "y":34.838939,
    "label":"城南中学校"
    }
  },
  {
    "type": "Feature",
    "geometry": {
       "type": "Point",
       "coordinates":  [ 135.605257,34.845913 ]
    },
    "properties": {
    "HID":"",
    "A32_001":55,
    "A32_002":"",
    "A32_003":"川西中学校",
    "address":"高槻市川西町二丁目３３−１",
    "x":135.605257,
    "y":34.845913,
    "label":"川西中学校"
    }
  },
  {
    "type": "Feature",
    "geometry": {
       "type": "Point",
       "coordinates":  [ 135.604184,34.835029 ]
    },
    "properties": {
    "HID":"",
    "A32_001":56,
    "A32_002":"",
    "A32_003":"如是中学校",
    "address":"高槻市如是町７−１",
    "x":135.604184,
    "y":34.835029,
    "label":"如是中学校"
    }
  },
  {
    "type": "Feature",
    "geometry": {
       "type": "Point",
       "coordinates":  [ 135.637915,34.832141 ]
    },
    "properties": {
    "HID":"",
    "A32_001":57,
    "A32_002":"",
    "A32_003":"冠中学校",
    "address":"高槻市大冠町二丁目２４−１",
    "x":135.637915,
    "y":34.832141,
    "label":"冠中学校"
    }
  },
  {
    "type": "Feature",
    "geometry": {
       "type": "Point",
       "coordinates":  [ 135.609677,34.869789 ]
    },
    "properties": {
    "HID":"",
    "A32_001":58,
    "A32_002":"",
    "A32_003":"芝谷中学校",
    "address":"高槻市芝谷町３−１",
    "x":135.609677,
    "y":34.869789,
    "label":"芝谷中学校"
    }
  },
  {
    "type": "Feature",
    "geometry": {
       "type": "Point",
       "coordinates":  [ 135.581911,34.858415 ]
    },
    "properties": {
    "HID":"",
    "A32_001":59,
    "A32_002":"",
    "A32_003":"阿武山中学校",
    "address":"高槻市奈佐原一丁目２−１",
    "x":135.581911,
    "y":34.858415,
    "label":"阿武山中学校"
    }
  }
]
}
